{
  "type": "FeatureCollection",
  "features": [
    {
      "type": "Feature",
      "properties": {
        "title": "Jorf Lasfar Power Plant",
        "country": "Morocco",
        "type": "power-water"

      },
      "geometry": {
        "type": "Point",
        "coordinates": [
          -8.623666763305664,
          33.11375858850192
        ]
      }
    },
    {
      "type": "Feature",
      "properties": {
        "title": "Takoradi Power Plant",
        "country": "Ghana",
        "type": "power-water"
      },
      "geometry": {
        "type": "Point",
        "coordinates": [
          -1.658860506766083,
          4.972004550559192
        ]
      }
    },
    {
      "type": "Feature",
      "properties": {
        "title": "Red Oak Power Plant",
        "country": "United States",
        "type": "power-water" 
      },
      "geometry": {
        "type": "Point",
        "coordinates": [
          -74.352342,
          40.446554
        ]
      }
    },
    {
      "type": "Feature",
      "properties": {
        "title": "Lakefield Wind Project",
        "country": "United States",
        "type": "energy" 
      },
      "geometry": {
        "type": "Point",
        "coordinates": [
          -95.28717,
          44.21371
        ]
      }
    },
    {
      "type": "Feature",
      "properties": {
        "title": "TAQA North",
        "country": "Canada",
        "type": "office" 
      },
      "geometry": {
        "type": "Point",
        "coordinates": [
          -130.4296875,
          56.17002298293205
        ]
      }
    },
    {
      "type": "Feature",
      "properties": {
        "title": "Neyveli Power Plant",
        "country": "India",
        "type": "power-water" 
      },
      "geometry": {
        "type": "Point",
        "coordinates": [
          79.41527499995247,
          11.54196700001542
        ]
      }
    },
    {
      "type": "Feature",
      "properties": {
        "title": "Himachal Pradesh Hydro Project",
        "country": "India",
        "type": "energy" 
      },
      "geometry": {
        "type": "Point",
        "coordinates": [
          77.55249,
          32.115149
        ]
      }
    },
    {
      "type": "Feature",
      "properties": {
        "title": "TAQA Energy",
        "country": "Netherlands",
        "type": "office" 
      },
      "geometry": {
        "type": "Point",
        "coordinates": [
          4.3007,
          52.070498
        ]
      }
    },
    {
      "type": "Feature",
      "properties": {
        "title": "TAQA Bratani",
        "country": "United Kingdom",
        "type": "office" 
      },
      "geometry": {
        "type": "Point",
        "coordinates": [
          -2.277129,
          57.155623
        ]
      }
    }
    ,
    {
      "type": "Feature",
      "properties": {
        "title": "TAQA North Africa",
        "country": "Morocco",
        "type": "office" 
      },
      "geometry": {
        "type": "Point",
        "coordinates": [
          -7.658316,
          33.515561
        ]
      }
    },
    {
      "type": "Feature",
      "properties": {
        "title": "Jubail Power Plant",
        "country": "Saudi Arabia",
        "type": "power-water"
      },
      "geometry": {
        "type": "Point",
        "coordinates": [
          49.666667,
          27
        ]
      }
    },
    {
      "type": "Feature",
      "properties": {
        "title": "Sulaymaniyah Power Plant",
        "country": "Iraq",
        "type": "power-water"
      },
      "geometry": {
        "type": "Point",
        "coordinates": [
          45.433333,
          35.55
        ]
      }
    },
    {
      "type": "Feature",
      "properties": {
         "title": "Atrush",
        "country": "Iraq",
        "type": "oil-gas"
      },
      "geometry": {
        "type": "Point",
        "coordinates": [
          43.334578,
          36.836655
        ]
      }
    },
    {
      "type": "Feature",
      "properties": {
        "title": "TAQA Atrush",
        "country": "Iraq",
        "type": "office" 
      },
      "geometry": {
        "type": "Point",
        "coordinates": [
          36.191111,
          44.009167
        ]
      }
    },
    {
      "type": "Feature",
      "properties": {
        "title": "Sohar Aluminium Power Plant",
        "country": "Oman",
        "type": "power-water" 
      },
      "geometry": {
        "type": "Point",
        "coordinates": [
          56.729889,
          24.342
        ]
      }
    },
    {
      "type": "Feature",
      "properties": {
        "title": "Abu Dhabi National Energy Company PJSC (TAQA) Headquarters",
        "country": "United Arab Emirates",
        "type": "office"  
      },
      "geometry": {
        "type": "Point",
        "coordinates": [
          54.389085,
          24.498438
        ]
      }
    },
    {
      "type": "Feature",
      "properties": {
        "title": "Shuweihat Power and Desalination Plant",
        "country": "United Arab Emirates",
        "type": "power-water"
      },
      "geometry": {
        "type": "Point",
        "coordinates": [
          52.56305694580078,
          24.164609434905106
        ]
      }
    },
    {
      "type": "Feature",
      "properties": {
        "title": "Taweelah A1 Power and Desalination Plant",
        "country": "United Arab Emirates",
        "type": "power-water" 
      },
      "geometry": {
        "type": "Point",
        "coordinates": [
          54.663848876953125,
          24.746831298412058
        ]
      }
    },
    {
      "type": "Feature",
      "properties": {
        "title": "Umm Al Nar Power and Desalination Plant",
        "country": "United Arab Emirates",
        "type": "power-water" 
      },
      "geometry": {
        "type": "Point",
        "coordinates": [
          54.51633,
          24.441425
        ]
      }
    },
    {
      "type": "Feature",
      "properties": {
        "title": "Waste-to-energy Plant",
        "country": "United Arab Emirates",
        "type": "energy"
      },
      "geometry": {
        "type": "Point",
        "coordinates": [
          54.521369934082024,
          24.30501949434981
        ]
      }
    }
  ]
}