{
  "type": "FeatureCollection",
  "features": [
    {
      "type": "Feature",
      "properties": {
        "title": "Jorf Lasfar Power Plant",
        "country": "Morocco",
        "type": "power-water"
      },
      "geometry": {
        "type": "Point",
        "coordinates": [
          -8.623666763305664,
          33.11375858850192
        ]
      }
    },
    {
      "type": "Feature",
      "properties": {
        "title": "Takoradi Power Plant",
        "country": "Ghana",
        "type": "power-water"
      },
      "geometry": {
        "type": "Point",
        "coordinates": [
          -1.658860506766083,
          4.972004550559192
        ]
      }
    },
    {
      "type": "Feature",
      "properties": {
        "title": "TAQA Generation International Operating Co. LLC",
        "country": "Ghana",
        "type": "office"
      },
      "geometry": {
        "type": "Point",
        "coordinates": [
          -1.766667,
          4.900000
        ]
      }
    },
    {
      "type": "Feature",
      "properties": {
        "title": "Red Oak Power Plant",
        "country": "United States",
        "type": "power-water"
      },
      "geometry": {
        "type": "Point",
        "coordinates": [
          -74.352342,
          40.446554
        ]
      }
    },
    {
      "type": "Feature",
      "properties": {
        "title": "Lakefield Wind Project",
        "country": "United States",
        "type": "energy"
      },
      "geometry": {
        "type": "Point",
        "coordinates": [
          -95.28717,
          44.21371
        ]
      }
    },
    {
      "type": "Feature",
      "properties": {
        "title": "TAQA North Ltd",
        "country": "Canada",
        "type": "office"
      },
      "geometry": {
        "type": "Point",
        "coordinates": [
          -130.4296875,
          56.17002298293205
        ]
      }
    },
    {
      "type": "Feature",
      "properties": {
        "title": "Neyveli Power Plant",
        "country": "India",
        "type": "power-water"
      },
      "geometry": {
        "type": "Point",
        "coordinates": [
          79.41527499995247,
          11.54196700001542
        ]
      }
    },
    {
      "type": "Feature",
      "properties": {
        "title": "ST-CMS Electric Company Pvt Ltd ",
        "country": "India",
        "type": "office"
      },
      "geometry": {
        "type": "Point",
        "coordinates": [
          80.258268,
          13.027924
        ]
      }
    },
    {
      "type": "Feature",
      "properties": {
        "title": "Himachal Pradesh Hydro Project",
        "country": "India",
        "type": "energy"
      },
      "geometry": {
        "type": "Point",
        "coordinates": [
          77.55249,
          32.115149
        ]
      }
    },
    {
      "type": "Feature",
      "properties": {
        "title": "TAQA Energy BV",
        "country": "Netherlands",
        "type": "office"
      },
      "geometry": {
        "type": "Point",
        "coordinates": [
          4.3007,
          52.070498
        ]
      }
    },
    {
      "type": "Feature",
      "properties": {
        "title": "TAQA Bratani Limited",
        "country": "United Kingdom",
        "type": "office"
      },
      "geometry": {
        "type": "Point",
        "coordinates": [
          -2.277129,
          57.155623
        ]
      }
    },
    {
      "type": "Feature",
      "properties": {
        "title": "TAQA North Africa",
        "country": "Morocco",
        "type": "office"
      },
      "geometry": {
        "type": "Point",
        "coordinates": [
          -7.658316,
          33.515561
        ]
      }
    },
    {
      "type": "Feature",
      "properties": {
        "title": "Jubail Power Plant",
        "country": "Saudi Arabia",
        "type": "power-water"
      },
      "geometry": {
        "type": "Point",
        "coordinates": [
          49.666667,
          27
        ]
      }
    },
    {
      "type": "Feature",
      "properties": {
        "title": "Sulaymaniyah Power Plant",
        "country": "Iraq",
        "type": "power-water"
      },
      "geometry": {
        "type": "Point",
        "coordinates": [
          45.433333,
          35.55
        ]
      }
    },
    {
      "type": "Feature",
      "properties": {
        "title": "Oil and gas exploration and production",
        "country": "United Kingdom",
        "type": "oil-gas"
      },
      "geometry": {
        "type": "Point",
        "coordinates": [
          0.5712890625,
          59.489726035537075
        ]
      }
    },{
      "type": "Feature",
      "properties": {
        "title": "Oil and gas exploration and production",
        "country": "United States",
        "type": "oil-gas"
      },
      "geometry": {
        "type": "Point",
        "coordinates": [
          -116.27929687499999,
          52.908902047770255
        ]
      }
    },{
      "type": "Feature",
      "properties": {
        "title": "Gas Storage Bergermeer and Gas Storage Peak Gas Installation (PGI) Alkmaar",
        "country": "Netherlands",
        "type": "oil-gas"
      },
      "geometry": {
        "type": "Point",
        "coordinates": [
          4.734334,
          52.642434
        ]
      }
    },
    {
      "type": "Feature",
      "properties": {
        "title": "Atrush",
        "country": "Iraq",
        "type": "oil-gas"
      },
      "geometry": {
        "type": "Point",
        "coordinates": [
          43.334578,
          36.836655
        ]
      }
    },
    {
      "type": "Feature",
      "properties": {
        "title": "TAQA Atrush BV",
        "country": "Iraq",
        "type": "office"
      },
      "geometry": {
        "type": "Point",
        "coordinates": [
          44.009167,
          36.191111  
        ]
      }
    },
    {
      "type": "Feature",
      "properties": {
        "title": "Sohar Aluminium Power Plant",
        "country": "Oman",
        "type": "power-water"
      },
      "geometry": {
        "type": "Point",
        "coordinates": [
          56.729889,
          24.342
        ]
      }
    },{
      "type": "Feature",
      "properties": {
        "title": "Power plants and desalination plants",
        "country": "United Arab Emirates",
        "type": "power-water"
      },
      "geometry": {
        "type": "Point",
        "coordinates": [
          54.644622802734375,
          24.58833910753816
        ]
      }
    },
    {
      "type": "Feature",
      "properties": {
        "title": "Abu Dhabi National Energy Company PJSC (TAQA) Headquarters",
        "country": "United Arab Emirates",
        "type": "office"
      },
      "geometry": {
        "type": "Point",
        "coordinates": [
          54.389085,
          24.498438
        ]
      }
    }
  ]
}